[
        {"name": "New York, New York", "latlong": "40.6635°N 73.9387°W" },
        {"name": "Los Angeles, California", "latlong": "34.0194°N 118.4108°W" },
        {"name": "Chicago, Illinois", "latlong": "41.8376°N 87.6818°W" },
        {"name": "Houston, Texas", "latlong": "29.7866°N 95.3909°W" },
        {"name": "Phoenix, Arizona", "latlong": "33.5722°N 112.0901°W" },
        {"name": "Philadelphia, Pennsylvania", "latlong": "40.0094°N 75.1333°W" },
        {"name": "San Antonio, Texas", "latlong": "29.4724°N 98.5251°W" },
        {"name": "San Diego, California", "latlong": "32.8153°N 117.1350°W" },
        {"name": "Dallas, Texas", "latlong": "32.7933°N 96.7665°W" },
        {"name": "San Jose, California", "latlong": "37.2967°N 121.8189°W" },
        {"name": "Austin, Texas", "latlong": "30.3039°N 97.7544°W" },
        {"name": "Jacksonville, Florida", "latlong": "30.3369°N 81.6616°W" },
        {"name": "Fort Worth, Texas", "latlong": "32.7815°N 97.3467°W" },
        {"name": "Columbus, Ohio", "latlong": "39.9852°N 82.9848°W" },
        {"name": "San Francisco, California", "latlong": "37.7272°N 123.0322°W" },
        {"name": "Charlotte, North Carolina", "latlong": "35.2078°N 80.8310°W" },
        {"name": "Indianapolis, Indiana", "latlong": "39.7767°N 86.1459°W" },
        {"name": "Seattle, Washington", "latlong": "47.6205°N 122.3509°W" },
        {"name": "Denver, Colorado", "latlong": "39.7619°N 104.8811°W" },
        {"name": "Washington, District of Columbia", "latlong": "38.9041°N 77.0172°W" },
        {"name": "Boston, Massachusetts", "latlong": "42.3320°N 71.0202°W" },
        {"name": "El Paso, Texas", "latlong": "31.8484°N 106.4270°W" },
        {"name": "Detroit, Michigan", "latlong": "42.3830°N 83.1022°W" },
        {"name": "Nashville, Tennessee", "latlong": "36.1718°N 86.7850°W" },
        {"name": "Portland, Oregon", "latlong": "45.5370°N 122.6500°W" },
        {"name": "Memphis, Tennessee", "latlong": "35.1028°N 89.9774°W" },
        {"name": "Oklahoma City, Oklahoma", "latlong": "35.4671°N 97.5137°W" },
        {"name": "Las Vegas, Nevada", "latlong": "36.2292°N 115.2601°W" },
        {"name": "Louisville, Kentucky", "latlong": "38.1654°N 85.6474°W" },
        {"name": "Baltimore, Maryland", "latlong": "39.3000°N 76.6105°W" },
        {"name": "Milwaukee, Wisconsin", "latlong": "43.0633°N 87.9667°W" },
        {"name": "Albuquerque, New Mexico", "latlong": "35.1056°N 106.6474°W" },
        {"name": "Tucson, Arizona", "latlong": "32.1531°N 110.8706°W" },
        {"name": "Fresno, California", "latlong": "36.7836°N 119.7934°W" },
        {"name": "Mesa, Arizona", "latlong": "33.4019°N 111.7174°W" },
        {"name": "Sacramento, California", "latlong": "38.5666°N 121.4686°W" },
        {"name": "Atlanta, Georgia", "latlong": "33.7629°N 84.4227°W" },
        {"name": "Kansas City, Missouri", "latlong": "39.1251°N 94.5510°W" },
        {"name": "Colorado Springs, Colorado", "latlong": "38.8673°N 104.7607°W" },
        {"name": "Miami, Florida", "latlong": "25.7752°N 80.2086°W" },
        {"name": "Raleigh, North Carolina", "latlong": "35.8306°N 78.6418°W" },
        {"name": "Omaha, Nebraska", "latlong": "41.2644°N 96.0451°W" },
        {"name": "Long Beach, California", "latlong": "33.8092°N 118.1553°W" },
        {"name": "Virginia Beach, Virginia", "latlong": "36.7800°N 76.0252°W" },
        {"name": "Oakland, California", "latlong": "37.7698°N 122.2257°W" },
        {"name": "Minneapolis, Minnesota", "latlong": "44.9633°N 93.2683°W" },
        {"name": "Tulsa, Oklahoma", "latlong": "36.1279°N 95.9023°W" },
        {"name": "Arlington, Texas", "latlong": "32.7007°N 97.1247°W" },
        {"name": "Tampa, Florida", "latlong": "27.9701°N 82.4797°W" },
        {"name": "New Orleans, Louisiana", "latlong": "30.0534°N 89.9345°W" },
        {"name": "Wichita, Kansas", "latlong": "37.6907°N 97.3459°W" },
        {"name": "Cleveland, Ohio", "latlong": "41.4785°N 81.6794°W" },
        {"name": "Bakersfield, California", "latlong": "35.3212°N 119.0183°W" },
        {"name": "Aurora, Colorado", "latlong": "39.6880°N 104.6897°W" },
        {"name": "Anaheim, California", "latlong": "33.8555°N 117.7601°W" },
        {"name": "Honolulu, Hawaii", "latlong": "21.3243°N 157.8476°W" },
        {"name": "Santa Ana, California", "latlong": "33.7363°N 117.8830°W" },
        {"name": "Riverside, California", "latlong": "33.9381°N 117.3932°W" },
        {"name": "Corpus Christi, Texas", "latlong": "27.7543°N 97.1734°W" },
        {"name": "Lexington, Kentucky", "latlong": "38.0407°N 84.4583°W" },
        {"name": "Stockton, California", "latlong": "37.9763°N 121.3133°W" },
        {"name": "Henderson, Nevada", "latlong": "36.0097°N 115.0357°W" },
        {"name": "Saint Paul, Minnesota", "latlong": "44.9489°N 93.1041°W" },
        {"name": "St. Louis, Missouri", "latlong": "38.6357°N 90.2446°W" },
        {"name": "Cincinnati, Ohio", "latlong": "39.1402°N 84.5058°W" },
        {"name": "Pittsburgh, Pennsylvania", "latlong": "40.4398°N 79.9766°W" },
        {"name": "Greensboro, North Carolina", "latlong": "36.0951°N 79.8270°W" },
        {"name": "Anchorage, Alaska", "latlong": "61.1743°N 149.2843°W" },
        {"name": "Plano, Texas", "latlong": "33.0508°N 96.7479°W" },
        {"name": "Lincoln, Nebraska", "latlong": "40.8105°N 96.6803°W" },
        {"name": "Orlando, Florida", "latlong": "28.4166°N 81.2736°W" },
        {"name": "Irvine, California", "latlong": "33.6784°N 117.7713°W" },
        {"name": "Newark, New Jersey", "latlong": "40.7242°N 74.1726°W" },
        {"name": "Toledo, Ohio", "latlong": "41.6641°N 83.5819°W" },
        {"name": "Durham, North Carolina", "latlong": "35.9811°N 78.9029°W" },
        {"name": "Chula Vista, California", "latlong": "32.6277°N 117.0152°W" },
        {"name": "Fort Wayne, Indiana", "latlong": "41.0882°N 85.1439°W" },
        {"name": "Jersey City, New Jersey", "latlong": "40.7114°N 74.0648°W" },
        {"name": "St. Petersburg, Florida", "latlong": "27.7620°N 82.6441°W" },
        {"name": "Laredo, Texas", "latlong": "27.5604°N 99.4892°W" },
        {"name": "Madison, Wisconsin", "latlong": "43.0878°N 89.4299°W" },
        {"name": "Chandler, Arizona", "latlong": "33.2829°N 111.8549°W" },
        {"name": "Buffalo, New York", "latlong": "42.8925°N 78.8597°W" },
        {"name": "Lubbock, Texas", "latlong": "33.5656°N 101.8867°W" },
        {"name": "Scottsdale, Arizona", "latlong": "33.6843°N 111.8611°W" },
        {"name": "Reno, Nevada", "latlong": "39.5491°N 119.8499°W" },
        {"name": "Glendale, Arizona", "latlong": "33.5331°N 112.1899°W" },
        {"name": "Gilbert, Arizona", "latlong": "33.3103°N 111.7431°W" },
        {"name": "Winston–Salem, North Carolina", "latlong": "36.1027°N 80.2610°W" },
        {"name": "North Las Vegas, Nevada", "latlong": "36.2857°N 115.0939°W" },
        {"name": "Norfolk, Virginia", "latlong": "36.9230°N 76.2446°W" },
        {"name": "Chesapeake, Virginia", "latlong": "36.6794°N 76.3018°W" },
        {"name": "Garland, Texas", "latlong": "32.9098°N 96.6303°W" },
        {"name": "Irving, Texas", "latlong": "32.8577°N 96.9700°W" },
        {"name": "Hialeah, Florida", "latlong": "25.8699°N 80.3029°W" },
        {"name": "Fremont, California", "latlong": "37.4945°N 121.9412°W" },
        {"name": "Boise, Idaho", "latlong": "43.6002°N 116.2317°W" },
        {"name": "Richmond, Virginia", "latlong": "37.5314°N 77.4760°W" },
        {"name": "Baton Rouge, Louisiana", "latlong": "30.4422°N 91.1309°W" },
        {"name": "Spokane, Washington", "latlong": "47.6669°N 117.4333°W" }
]
